{
  "arrondissement": {
    "id": "1er",
    "name": "1ER ARRONDISSEMENT - LE LOUVRE",
    "description": "Cœur historique et artistique de Paris",
    "bounds": {
      "north": 48.8675,
      "south": 48.855,
      "east": 2.35,
      "west": 2.325
    },
    "center": [
      48.8607,
      2.3358
    ],
    "area_km2": 1.83,
    "population": 16888,
    "transport": {
      "metro_stations": [
        {
          "name": "Louvre-Rivoli",
          "lines": [
            "1"
          ],
          "coordinates": [
            48.8606,
            2.3354
          ]
        },
        {
          "name": "Châtelet-Les Halles",
          "lines": [
            "1",
            "4",
            "7",
            "11",
            "14"
          ],
          "coordinates": [
            48.8608,
            2.347
          ]
        },
        {
          "name": "Palais-Royal",
          "lines": [
            "1",
            "7"
          ],
          "coordinates": [
            48.8656,
            2.3364
          ]
        }
      ],
      "description": "Métro : Louvre-Rivoli (1), Châtelet-Les Halles (1,4,7,11,14), Palais-Royal (1,7)"
    },
    "categories": {
      "monuments": {
        "title": "Monuments",
        "description": "Patrimoine architectural et historique exceptionnel",
        "places": [
          {
            "id": "musee-du-louvre",
            "name": "Musée du Louvre",
            "description": "La Joconde, Vénus de Milo, Pyramide de verre, 35 000 œuvres",
            "address": "Rue de Rivoli, 75001 Paris",
            "coordinates": [
              48.862513,
              2.33593
            ],
            "geocoding": {
              "source": "Nominatim",
              "confidence": 0.47,
              "corrected_at": "2025-08-07T23:47:24.993Z",
              "old_coordinates": [
                48.8606,
                2.3376
              ]
            }
          },
          {
            "id": "sainte-chapelle",
            "name": "Sainte-Chapelle",
            "description": "1113 vitraux du XIIIe siècle, chef-d'œuvre gothique",
            "address": "8 Boulevard du Palais, 75001 Paris",
            "coordinates": [
              48.8553,
              2.3447
            ]
          },
          {
            "id": "conciergerie",
            "name": "Conciergerie",
            "description": "Prison de Marie-Antoinette, salle des gardes médiévale",
            "address": "2 Boulevard du Palais, 75001 Paris",
            "coordinates": [
              48.8554,
              2.3452
            ]
          },
          {
            "id": "palais-royal",
            "name": "Palais-Royal",
            "description": "Jardins, galeries, colonnes de Buren controversées",
            "address": "Place du Palais-Royal, 75001 Paris",
            "coordinates": [
              48.862564,
              2.3367804175609663
            ],
            "geocoding": {
              "source": "Photon",
              "confidence": 0.7,
              "corrected_at": "2025-08-07T23:47:41.375Z",
              "old_coordinates": [
                48.8632,
                2.3367
              ]
            }
          },
          {
            "id": "place-vendome",
            "name": "Place Vendôme",
            "description": "Architecture classique, bijoutiers de luxe, Colonne Vendôme",
            "address": "Place Vendôme, 75001 Paris",
            "coordinates": [
              48.8677,
              2.3297
            ]
          },
          {
            "id": "eglise-saint-germain-auxerrois",
            "name": "Église Saint-Germain-l'Auxerrois",
            "description": "Église des rois de France, carillon",
            "address": "2 Place du Louvre, 75001 Paris",
            "coordinates": [
              48.8605,
              2.34
            ]
          },
          {
            "id": "pont-neuf",
            "name": "Pont Neuf",
            "description": "Plus ancien pont de Paris (1607), statue Henri IV",
            "address": "Pont Neuf, 75001 Paris",
            "coordinates": [
              48.8567,
              2.3417
            ]
          },
          {
            "id": "chatelet-fontaine",
            "name": "Châtelet-Fontaine",
            "description": "Fontaine du Palmier, théâtres historiques",
            "address": "Place du Châtelet, 75001 Paris",
            "coordinates": [
              48.8576,
              2.3474
            ]
          },
          {
            "id": "bourse-de-commerce",
            "name": "Bourse de Commerce",
            "description": "Fondation Pinault, architecture Tadao Ando",
            "address": "2 Rue de Viarmes, 75001 Paris",
            "coordinates": [
              48.8612,
              2.3422
            ]
          },
          {
            "id": "oratoire-du-louvre",
            "name": "Oratoire du Louvre",
            "description": "Temple protestant historique",
            "address": "145 Rue Saint-Honoré, 75001 Paris",
            "coordinates": [
              48.8621,
              2.3378
            ]
          }
        ]
      },
      "espaces-verts": {
        "title": "Parcs",
        "places": [
          {
            "id": "jardin-des-tuileries",
            "name": "Jardin des Tuileries",
            "description": "Promenade entre Louvre et Concorde, Musée Orangerie",
            "address": "Place de la Concorde, 75001 Paris",
            "coordinates": [
              48.8634,
              2.3275
            ]
          },
          {
            "id": "square-du-vert-galant",
            "name": "Square du Vert-Galant",
            "description": "Pointe de l'île de la Cité, couchers de soleil",
            "address": "15 Place du Pont-Neuf, 75001 Paris",
            "coordinates": [
              48.8564,
              2.341
            ]
          },
          {
            "id": "cour-carree-du-louvre",
            "name": "Cour Carrée du Louvre",
            "description": "Architecture Renaissance, concerts gratuits été",
            "address": "Cour Carrée du Louvre, 75001 Paris",
            "coordinates": [
              48.8606,
              2.3398
            ]
          },
          {
            "id": "jardin-de-linfante",
            "name": "Jardin de l'Infante",
            "description": "Jardin suspendu secret, vue Seine",
            "address": "1 Place du Louvre, 75001 Paris",
            "coordinates": [
              48.8601,
              2.3412
            ]
          },
          {
            "id": "square-jean-xxiii",
            "name": "Square Jean XXIII",
            "description": "Derrière Notre-Dame, rosiers et pelouses",
            "address": "4 Parvis Notre-Dame, 75004 Paris",
            "coordinates": [
              48.853,
              2.3498
            ]
          }
        ]
      },
      "restaurants": {
        "title": "Restaurants",
        "places": [
          {
            "id": "palais-royal-restaurant",
            "name": "Palais Royal Restaurant",
            "description": "⭐⭐ Michelin - 110 Galerie Valois, menu 165-195€",
            "address": "110 Galerie de Valois, 75001 Paris",
            "coordinates": [
              48.8632,
              2.3367
            ]
          },
          {
            "id": "lescargot-montorgueil",
            "name": "L'Escargot Montorgueil",
            "description": "Institution depuis 1832, décor historique",
            "address": "38 Rue Montorgueil, 75001 Paris",
            "coordinates": [
              48.865,
              2.3467
            ]
          },
          {
            "id": "rue-montorgueil",
            "name": "Rue Montorgueil",
            "description": "Marché piétonnier, boulangeries artisanales, Stohrer",
            "address": "Rue Montorgueil, 75001 Paris",
            "coordinates": [
              48.8648,
              2.3467
            ]
          },
          {
            "id": "angelina",
            "name": "Angelina",
            "description": "Chocolat chaud légendaire depuis 1903",
            "address": "226 Rue de Rivoli, 75001 Paris",
            "coordinates": [
              48.8656,
              2.3276
            ]
          },
          {
            "id": "loulou",
            "name": "Loulou",
            "description": "Restaurant terrasse Tuileries, vue Louvre",
            "address": "Jardin des Tuileries, 75001 Paris",
            "coordinates": [
              48.8634,
              2.3275
            ]
          },
          {
            "id": "verjus",
            "name": "Verjus",
            "description": "Wine bar caché, cuisine moderne",
            "address": "52 Rue de Richelieu, 75001 Paris",
            "coordinates": [
              48.8662,
              2.3373
            ]
          },
          {
            "id": "restaurant-du-palais-royal",
            "name": "Restaurant du Palais Royal",
            "description": "Terrasse galeries historiques",
            "address": "43 Rue de Valois, 75001 Paris",
            "coordinates": [
              48.8628,
              2.335
            ]
          },
          {
            "id": "yamtcha",
            "name": "Yam'Tcha",
            "description": "⭐ Michelin - Fusion franco-chinoise, thés d'exception",
            "address": "4 Rue Sauval, 75001 Paris",
            "coordinates": [
              48.8593,
              2.3445
            ]
          },
          {
            "id": "le-grand-vefour",
            "name": "Le Grand Véfour",
            "description": "⭐⭐⭐ Michelin - Restaurant historique Palais-Royal",
            "address": "17 Rue de Beaujolais, 75001 Paris",
            "coordinates": [
              48.8661551,
              2.3379157
            ],
            "geocoding": {
              "source": "Photon",
              "confidence": 0.7,
              "corrected_at": "2025-08-07T23:48:04.940Z",
              "old_coordinates": [
                48.8661,
                2.338
              ]
            }
          }
        ]
      },
      "shopping": {
        "title": "Shopping",
        "places": [
          {
            "id": "forum-des-halles",
            "name": "Forum des Halles",
            "description": "Centre commercial, 150 boutiques, Canopée architecture",
            "address": "101 Porte Berger, 75001 Paris",
            "coordinates": [
              48.8608,
              2.347
            ]
          },
          {
            "id": "rue-de-rivoli",
            "name": "Rue de Rivoli",
            "description": "Souvenirs, mode accessible, librairie Galignani",
            "address": "Rue de Rivoli, 75001 Paris",
            "coordinates": [
              48.8606,
              2.3354
            ]
          },
          {
            "id": "whsmith",
            "name": "Librairie anglaise WHSmith",
            "description": "Livres en anglais, presse internationale",
            "address": "248 Rue de Rivoli, 75001 Paris",
            "coordinates": [
              48.8656,
              2.3276
            ]
          },
          {
            "id": "galerie-vero-dodat",
            "name": "Galerie Véro-Dodat",
            "description": "Passage couvert 1826, antiquaires luxe",
            "address": "2 Rue du Bouloi, 75001 Paris",
            "coordinates": [
              48.8631,
              2.3423
            ]
          },
          {
            "id": "louvre-des-antiquaires",
            "name": "Louvre des Antiquaires",
            "description": "250 antiquaires sous un toit",
            "address": "2 Place du Palais-Royal, 75001 Paris",
            "coordinates": [
              48.863,
              2.3372
            ]
          },
          {
            "id": "rue-saint-honore",
            "name": "Rue Saint-Honoré",
            "description": "Haute couture, joaillerie, maroquinerie luxe",
            "address": "Rue Saint-Honoré, 75001 Paris",
            "coordinates": [
              48.8621,
              2.3378
            ]
          }
        ]
      },
      "culture": {
        "title": "Culture",
        "places": [
          {
            "id": "comedie-francaise",
            "name": "Comédie-Française",
            "description": "Théâtre national, salle Richelieu",
            "address": "1 Place Colette, 75001 Paris",
            "coordinates": [
              48.8656,
              2.3364
            ]
          },
          {
            "id": "theatre-du-chatelet",
            "name": "Théâtre du Châtelet",
            "description": "Opéras, concerts classiques, comédies musicales",
            "address": "1 Place du Châtelet, 75001 Paris",
            "coordinates": [
              48.8576,
              2.3474
            ]
          },
          {
            "id": "theatre-de-la-ville",
            "name": "Théâtre de la Ville",
            "description": "Danse contemporaine, théâtre d'avant-garde",
            "address": "2 Place du Châtelet, 75001 Paris",
            "coordinates": [
              48.8576,
              2.3474
            ]
          },
          {
            "id": "auditorium-du-louvre",
            "name": "Auditorium du Louvre",
            "description": "Concerts musique de chambre",
            "address": "Rue de Rivoli, 75001 Paris",
            "coordinates": [
              48.8606,
              2.3376
            ]
          }
        ]
      },
      "lieux-insolites": {
        "title": "Secrets",
        "places": [
          {
            "id": "passage-moliere",
            "name": "Passage Molière",
            "description": "Plus petit passage couvert Paris",
            "address": "Passage Molière, 75001 Paris",
            "coordinates": [
              48.8656,
              2.3364
            ]
          }
        ]
      }
    }
  }
}